=~=~=~=~=~=~=~=~=~=~=~= PuTTY log 2018.08.05 22:56:47 =~=~=~=~=~=~=~=~=~=~=~=

---------send AT Command:---1407.18632
+---------------------------------------------------+
145647.000,2233.805514N.114$GNGGAE
0,K,A*230,2233.805514,N,11407.18632
+---------------------------------------------------+
145647.000,2233.805514N.114$GNGGAE

---------send AT Command:---------
AT

==========receive AT Command:==========
AT
OK

---------send AT Command:---------
AT+CREG?

==========receive AT Command:==========
AT+CREG?
+CREG: 0,
---------send AT Command:---------
AT+CGCLASS="B"

==========receive AT Command:==========
1

OK

---------send AT Command:---------
AT+CGDCONT=1,"IP","3gnet"

==========receive AT Command:==========
AT+CGCLASS="B"AT+CGDCONT=1,"IP","3gnet"
OK
---------send AT Command:---------
AT+CGATT=1

==========receive AT Command:==========


OK

---------send AT Command:---------
AT+CLPORT="TCP","2000"

==========receive AT Command:==========
AT+CGATT=1AT+CLPORT="TCP","2000"
OK
GPRS init ok.
Setup done!
Received GPS data:
$GNGGA,145649.000,2233.805514,N,11407.186328,E,1,8,1.52,107.763,M,-1.779,M,,*5E
~~~~~~~~~~~~~~~~~~~~~~~~~~~~~~~~~~~~~~
Received GPS data:
$GPGSA,A,3,12,21,25,193,,,,,,,,,1.77,1.52,0.91*31
~~~~~~~~~~~~~~~~~~~~~~~~~~~~~~~~~~~~~~
Received GPS data:
$GLGSA,A,3,7,,,,1.77,1.52,0.91*14
~~~~~~~~~~~~~~~~~~~~~~~~~~~~~~~~~~~~~~
Received GPS data:
$GPGSV,2,1,07,25,37,146,50,2,14,17,285,,193,,,35,32,,,36*7B
~~~~~~~~~~~~~~~~~~~~~~~~~~~~~~~~~~~~~~
---- Current Watch Satellite ----
07
Received GPS data:
$G,199,43*6A
~~~~~~~~~~~~~~~~~~~~~~~~~~~~~~~~~~~~~~
Received GPS data:
$GLGSV,2,2,05,65,,,23*62
~~~~~~~~~~~~~~~~~~~~~~~~~~~~~~~~~~~~~~
---- Current Watch Satellite ----
05
Received GPS data:
$GNRMC,145649.000,A,223$GNGGA,145650.000,2233.805514,N,11407.186328,E,1,8,1.52,107.763,M,-1.779,M,,*56
~~~~~~~~~~~~~~~~~~~~~~~~~~~~~~~~~~~~~~
Received GPS data:
$GPGSA,A,3,12,21,25,193,,,,,,,,,1.77,1.52,0.91*31
~~~~~~~~~~~~~~~~~~~~~~~~~~~~~~~~~~~~~~
*************** Input GPS Raw Data ******************
$GNRMC,145649.000,A,223$GNGGA,145650.000,2233.805514,N,11407.186328,E,1,8,1.52,1
+---------------------------------------------------+
145649.000779,M,,*56
Received GPS data:
$GLGSA,A,3,7$GPGSV,2,1,07,25,37,146,50,21,36,209,46,12,34,089,2,32,,,36*78
~~~~~~~~~~~~~~~~~~~~~~~~~~~~~~~~~~~~~~
---- Current Watch Satellite ----
07
Received GPS data:
$GLGSV,2,1,05,75,68,175,46,74,48,036,34,72,47,040,29,76,00,N,0.$GNGGA,145651.000,2233.805514,N,11407.186328,E,1,8,1.52,107.763,M,-1.779,M,,*57
~~~~~~~~~~~~~~~~~~~~~~~~~~~~~~~~~~~~~~
---- Current Watch Satellite ----
05
Received GPS data:
$GPGSA,A,3,12,21,25,193,,,,,,,,,1.77,1.52,0.91*31
~~~~~~~~~~~~~~~~~~~~~~~~~~~~~~~~~~~~~~
Received GPS data:
$GLGSA,A,3,7V,2,2,07,14,17,285,,193,,,36,32,,,36*78
~~~~~~~~~~~~~~~~~~~~~~~~~~~~~~~~~~~~~~
Received GPS data:
$GLGSV,2,1*6B
~~~~~~~~~~~~~~~~~~~~~~~~~~~~~~~~~~~~~~
Received GPS data:
$GLGSV,2,2,05,65,,,24*65
~~~~~~~~~~~~~~~~~~~~~~~~~~~~~~~~~~~~~~
---- Current Watch Satellite ----
05
Received GPS data:
$GNRMC,145651.000,A,22VTG,0.00,T,,M,0$GNGGA,145652.000,2233.805514,N,11407.186328,E,1,8,1.52,107.763,M,-1.779,M,,*54
~~~~~~~~~~~~~~~~~~~~~~~~~~~~~~~~~~~~~~
Received GPS data:
$GPGSA,A,3,12,21,25,193,,,,,,,,,1.77,1.52,0.91*31
~~~~~~~~~~~~~~~~~~~~~~~~~~~~~~~~~~~~~~
Received GPS data:
$GLGSA,A,3,707,25,37,146,50,21,36,209,46,12,34,089,30,40,28,2528
~~~~~~~~~~~~~~~~~~~~~~~~~~~~~~~~~~~~~~
*************** Input GPS Raw Data ******************
$GNRMC,145651.000,A,22VTG,0.00,T,,M,0$GNGGA,145652.000,2233.805514,N,11407.18632
+---------------------------------------------------+
145651.000,107.763,M,-1.779,M,,*544
Received GPS data:
$GLGSV,2,1,05,75,68,175,46,74,48,036,35,72,47,040,29,76,22,199,2233.805514,N,11407.186328,E,0.00,0.00,050818,,,A*7D
~~~~~~~~~~~~~~~~~~~~~~~~~~~~~~~~~~~~~~
---- Current Watch Satellite ----
05
Received GPS data:
$GNVTG,0.00,T,$GNGGA,145653.000,2233.805514,N,11407.186328,E,1,8,1.52,107.763,M,-1.779,M,,*55
~~~~~~~~~~~~~~~~~~~~~~~~~~~~~~~~~~~~~~
Received GPS data:
$GPGSA,A,3,12,21,25,193,,,,,,,,,1.77,1.52,0.91*31
~~~~~~~~~~~~~~~~~~~~~~~~~~~~~~~~~~~~~~
Received GPS data:
$GLGSA,A,3,72,0.91*14
~~~~~~~~~~~~~~~~~~~~~~~~~~~~~~~~~~~~~~
Received GPS data:
$GPGSV,2,1,07,193,69,100,36,25,37,146,5052,37,14,17,285,,32,,,30,29,76,22,199,44*68
~~~~~~~~~~~~~~~~~~~~~~~~~~~~~~~~~~~~~~
---- Current Watch Satellite ----
07
Received GPS data:
$GLGSV,2,2,05,65,,,26*67
~~~~~~~~~~~~~~~~~~~~~~~~~~~~~~~~~~~~~~
---- Current Watch Satellite ----
05
Save_Data.UTCTime = 145651.000,22VTG63,M,-0.T09,M,,*544
Save_Data.latitude = 22VTG63,M,-0.T09,M,,*544
Save_Data.N_S = 0.T09,M,,*544
Save_Data.longitude = T09,M,,*544
Save_Data.E_W = N

---------send AT Command:---------
AT+CIPSTART="TCP","api.heclouds.com",80

==========receive AT Command:==========

OK
AT+CIPSTART="TCP","api.heclouds.com",80
OK

CONNECT
---------send AT Command:---------
AT+CIPSEND

==========receive AT Command:==========
 OK
AT+CIPSEND
>
---------send AT Command:---------
POST /devices/31027885/datapoints HTTP/1.1
api-key:rLhsBYEcRfk6BBAwcpNHKIZ199Y=
Host:api.heclouds.com
Content-Length:92

{"datastreams":[{"id":"location","datapoints":[{"value":{"lon":0.000000,"lat":0.366667}}]}]}
==========receive AT Command:==========
 POST /devices/31027885/datapoints HTTP/1.1
api-key:rLhsBYEcRfk6BBAwcpNHKIZ199Y=
Host:api.heclouds.com
Content-Length:92

{"datastreams":[{"id":"location","datapoints":[{"value":{"lon":0.000000,"lat":0.366667}}]}]}
---------send AT Command:---------

==========receive AT Command:==========

SEND OK
HTTP/1.1 200 OK
Date: Sun, 05 Aug 2018 14:56:57 GMT
Content-Type: application/json
Content-Length: 26
Connection: keep-alive
Server: Apache-Coyote/1.1
Pragma: no-cache

{"errno":0,"error":"succ"}
---------send AT Command:---------
AT+CIPCLOSE

==========receive AT Command:==========
AT+CIPCLOSE
CLOSE OK

---------send AT Command:---------
AT+CIPSHUT

==========receive AT Command:==========
AT+CIPSHUT
SHUT OK
GPS DATA is usefull!
Received GPS data:
$GNRMC,145653.000,A,2233.805514,N,114$GNGGA,145654.000,2233.805514,N,11407.186328,E,1,8,1.52,107.763$GNGGA,145658.000,2233.805514,N,11407.186328,E,1,9,0.98,107.763,M,-1.779,M,,*58
~~~~~~~~~~~~~~~~~~~~~~~~~~~~~~~~~~~~~~
Received GPS data:
$GPGSA,A,3,12,21,25,14,193,,,,,,,,1.32,0.98,0.89*3B
~~~~~~~~~~~~~~~~~~~~~~~~~~~~~~~~~~~~~~
Received GPS data:
$GLGSA,A,3$GPGSV,2,2,07,40,28,252,36,14,17,285,19,32,,,32*74
~~~~~~~~~~~~~~~~~~~~~~~~~~~~~~~~~~~~~~
---- Current Watch Satellite ----
07
Received GPS data:
$,30,76,22,199,43*64
~~~~~~~~~~~~~~~~~~~~~~~~~~~~~~~~~~~~~~
Received GPS data:
$GLGSV,2,2,05,65,,,29*68
~~~~~~~~~~~~~~~~~~~~~~~~~~~~~~~~~~~~~~
---- Current Watch Satellite ----
05
Received GPS data:
$GNRMC,145658.0,A*23
~~~~~~~~~~~~~~~~~~~~~~~~~~~~~~~~~~~~~~
*************** Input GPS Raw Data ******************
$GNRMC,145658.0,A*232233.805514,N,114$GNGGA,145654.000,2233.805514,N,11407.18632
+---------------------------------------------------+
145658.052,107.763$GNGGA,145658.000,2233.805514,N,11407.186328,E,1,9,0.98,107.763,M,-1.779,M,,*58
CLOSE OK
AT+CIPSHUT
SHUT OK
:0,"error":"s:0.000000,"lat":0.366667}}]}]}+CIPCLOSE
+CIPSHUT
value":{"lon"F
Received GPS data:
$GNGGA,145659.000,2233.805514,N,11407.186328,E,1,9,0.98,107.763,M,-1.779,M,,*59
~~~~~~~~~~~~~~~~~~~~~~~~~~~~~~~~~~~~~~
Received GPS data:
$GPGSA,A,3,12,21,25,14,193,,,,,,,,1.32,0.98,0.89*3B
~~~~~~~~~~~~~~~~~~~~~~~~~~~~~~~~~~~~~~
Received GPS data:
$GLGSA,A,3,,,,,,,1.32,0.98,0.89*1B
~~~~~~~~~~~~~~~~~~~~~~~~~~~~~~~~~~~~~~
Received GPS data:
$GPGSV,2,1,07,193,69,100,36,2,07,40,28,252,36,14,17,285,17,32,,,040,31,76,22,199,43*65
~~~~~~~~~~~~~~~~~~~~~~~~~~~~~~~~~~~~~~
---- Current Watch Satellite ----
07
Received GPS data:
$GLGSV,2,2,05,65,,,29*68
~~~~~~~~~~~~~~~~~~~~~~~~~~~~~~~~~~~~~~
---- Current Watch Satellite ----
05
Received GPS data:
$GNRMC,145659.000,A,2233.805514,N,114$GNGGA,145700.000,2233.805514,N,11407.186328,E,1,9,0.98,107.763,M,-1.779,M,,*54
~~~~~~~~~~~~~~~~~~~~~~~~~~~~~~~~~~~~~~
Received GPS data:
$GPGSA,A,3,12,21,25,14,193,,,,,,,,1.32,0.98,0.89*3B
~~~~~~~~~~~~~~~~~~~~~~~~~~~~~~~~~~~~~~
*************** Input GPS Raw Data ******************
$GNRMC,145659.000,A,2233.805514,N,114$GNGGA,145700.000,2233.805514,N,11407.18632
+---------------------------------------------------+
145659.000,107.763,M,-1.779,M,,*540,223.805514,N,11407.186328,E,1,9,0.98,107.763,M,-1.779,M,,*58
CLOSE OK
AT+CIPSHUT
SHUT OK
:0,"error":"s:0.000000,"lat":0.366667}}]}]}+CIPCLOSE
+CIPSHUT
value":{"lon"F
Received GPS data:
$GLGSA,A,3,07,193,69,100,36,25,37,146,50,21,36,209,46,12,34,089,,30*78
~~~~~~~~~~~~~~~~~~~~~~~~~~~~~~~~~~~~~~
Received GPS data:
$GLGSV,2,1,05,75,68,175,44,74,48,036,37,72,47,040,31,76,22,$GNGGA,145701.000,2233.805514,N,11407.186328,E,1,8,1.52,107.763,M,-1.779,M,,*53
~~~~~~~~~~~~~~~~~~~~~~~~~~~~~~~~~~~~~~
---- Current Watch Satellite ----
05
Received GPS data:
$GPGSA,A,3,12,21,25,193,,,,,,,,,1.77,1.52,0.91*31
~~~~~~~~~~~~~~~~~~~~~~~~~~~~~~~~~~~~~~
Received GPS data:
$GLGSA,A,3,743
~~~~~~~~~~~~~~~~~~~~~~~~~~~~~~~~~~~~~~
Received GPS data:
$GPGSV,2,2,07,40,28,252,36,14,17,285,19,32,,,3040,32,76,22,199,33.805514,N,11407.186328,E,0.00,0.00,050818,,,A*7A
~~~~~~~~~~~~~~~~~~~~~~~~~~~~~~~~~~~~~~
---- Current Watch Satellite ----
07
Received GPS data:
$GNVTG,0.00,T,,M,0.00,N,0.00,K,A*23
~~~~~~~~~~~~~~~~~~~~~~~~~~~~~~~~~~~~~~
Received GPS data:
$GNGGA,145702.000,2233.805514,N,11407.186328,E,1,8,1.52,107.763,M,-1.779,M,,*50
~~~~~~~~~~~~~~~~~~~~~~~~~~~~~~~~~~~~~~
Received GPS data:
$GPGSA,A,3,12,21,25,193,,,,,,,,,1.78,1.52,0.91*3E
~~~~~~~~~~~~~~~~~~~~~~~~~~~~~~~~~~~~~~
Received GPS data:
$GLGSA,A,3,7,,,,,1.78,1.52,0.91*1B
~~~~~~~~~~~~~~~~~~~~~~~~~~~~~~~~~~~~~~
Received GPS data:
$GPGSV,2,1,07,193,69,100,36,2,07,40,28,252,36,14,17,285,17,32,,040,32,76,22,199,43*66
~~~~~~~~~~~~~~~~~~~~~~~~~~~~~~~~~~~~~~
---- Current Watch Satellite ----
07
Received GPS data:
$GLGSV,2,2,05,65,,,28*69
~~~~~~~~~~~~~~~~~~~~~~~~~~~~~~~~~~~~~~
---- Current Watch Satellite ----
05
Save_Data.UTCTime = 145659.000,2233.805514N.114$GNGGA40,14700.0004,N,11407.186328,E,1,9,0.98,107.763,M,-1.779,M,,*58
CLOSE OK
AT+CIPSHUT
SHUT OK
:0,"error":"s:0.000000,"lat":0.366667}}]}]}+CIPCLOSE
+CIPSHUT
value":{"lon"F
Save_Data.latitude = 2233.805514N.114$GNGGA40,14
Save_Data.N_S = N.114$GNGGA40,14
Save_Data.longitude = 114$GNGGA40,14
Save_Data.E_W = 14

---------send 
---------send AT Command:---------
AT

==========receive AT Command:==========
AT
OK

---------send AT Command:---------
AT+CREG?

==========receive AT Command:==========
AT+CREG?
+CREG: 0,
---------send AT Command:---------
AT+CGCLASS="B"

==========receive AT Command:==========
1

OK

---------send AT Command:---------
AT+CGDCONT=1,"IP","3gnet"

==========receive AT Command:==========
AT+CGCLASS="B"AT+CGDCONT=1,"IP","3gnet"
OK
---------send AT Command:---------
AT+CGATT=1

==========receive AT Command:==========


OK

---------send AT Command:---------
AT+CLPORT="TCP","2000"

==========receive AT Command:==========
AT+CGATT=1AT+CLPORT="TCP","2000"
OK
GPRS init ok.
Setup done!
Received GPS data:
$GNGGA,145703.000,2233.805514,N,11407.186328,E,1,8,1.52,107.76376,74,,,,,,,,,1.77,1.52,0.91*14
~~~~~~~~~~~~~~~~~~~~~~~~~~~~~~~~~~~~~~
Received GPS data:
$GPGSV,2,1,07,193,69,100,36,25,37,146,50,21,36,209,47,12,34,089*7E
~~~~~~~~~~~~~~~~~~~~~~~~~~~~~~~~~~~~~~
---- Current Watch Satellite ----
07
Received GPS data:
$GLGSV,2,1,05,75,68,175,45,74,48,036,34,72,47,040,32,76,22,199,0.00,050818,,,A*78
~~~~~~~~~~~~~~~~~~~~~~~~~~~~~~~~~~~~~~
---- Current Watch Satellite ----
05
Received GPS data:
$GNVTG,0.00,T,,M,0.00,N,0.00,K,A*23
~~~~~~~~~~~~~~~~~~~~~~~~~~~~~~~~~~~~~~
Received GPS data:
$GNGGA,145704.000,2233.805514,N,11407.186328,E,1,8,1.52,107.763,M,-1.779,M,,*56
~~~~~~~~~~~~~~~~~~~~~~~~~~~~~~~~~~~~~~
Received GPS data:
$GPGSA,A,3,12,21,25,193,,,,,,,,,1.77,1.52,0.91*31
~~~~~~~~~~~~~~~~~~~~~~~~~~~~~~~~~~~~~~
Received GPS data:
$GLGSA,A,3,7,,,,,1.77,1.52,0.91*14
~~~~~~~~~~~~~~~~~~~~~~~~~~~~~~~~~~~~~~
Received GPS data:
$GPGSV,2,1,07,193,69,100,36,2,07,40,28,252,36,14,17,285,,32,,,20,32,76,22,199,43*63
~~~~~~~~~~~~~~~~~~~~~~~~~~~~~~~~~~~~~~
---- Current Watch Satellite ----
07
Received GPS data:
$GLGSV,2,2,05,65,,,28*69
~~~~~~~~~~~~~~~~~~~~~~~~~~~~~~~~~~~~~~
---- Current Watch Satellite ----
05
Received GPS data:
$GNRMC,145704.000,A,2233.805514,N,114$GNGGA,145705.000,2233.805514,N,11407.186328,E,1,9,0.98,107.763,M,-1.779,M,,*51
~~~~~~~~~~~~~~~~~~~~~~~~~~~~~~~~~~~~~~
Received GPS data:
$GPGSA,A,3,12,21,25,14,193,,,,,,,,1.32,0.98,0.89*3B
~~~~~~~~~~~~~~~~~~~~~~~~~~~~~~~~~~~~~~
*************** Input GPS Raw Data ******************
$GNRMC,145704.000,A,2233.805514,N,114$GNGGA,145705.000,2233.805514,N,11407.18632
+---------------------------------------------------+
145704.000,107.763,M,-1.779,M,,*51
Received GPS data:
$GLGSA,A,31,07,193,69,100,36,25,37,146,49,21,36,209,47,12,34,08,,,20*7C
~~~~~~~~~~~~~~~~~~~~~~~~~~~~~~~~~~~~~~
Received GPS data:
$GLGSV,2,1,05,75,68,175,45,74,48,036,32,72,47,040,32,76,22,K,A*$GNGGA,145706.000,2233.805514,N,11407.186328,E,1,9,0.98,107.763,M,-1.779,M,,*52
~~~~~~~~~~~~~~~~~~~~~~~~~~~~~~~~~~~~~~
---- Current Watch Satellite ----
05
Received GPS data:
$GPGSA,A,3,12,21,25,14,193,,,,,,,,1.32,0.98,0.89*3B
~~~~~~~~~~~~~~~~~~~~~~~~~~~~~~~~~~~~~~
Received GPS data:
$GLGSA,A,3
~~~~~~~~~~~~~~~~~~~~~~~~~~~~~~~~~~~~~~
Received GPS data:
$GPGSV,2,2,07,40,28,252,36,14,17,285,30,32,,,19*761,76,22,199,33.805514,N,11407.186328,E,0.00,0.00,050818,,,A*7D
~~~~~~~~~~~~~~~~~~~~~~~~~~~~~~~~~~~~~~
---- Current Watch Satellite ----
07
Received GPS data:
$GNVTG,0.00,T,,M,0.00,N,0.00,K,A*23
~~~~~~~~~~~~~~~~~~~~~~~~~~~~~~~~~~~~~~
Received GPS data:
$GNGGA,145707.000,2233.805514,N,11407.186328,E,1,9,0.98,107.763,M,-1.779,M,,*53
~~~~~~~~~~~~~~~~~~~~~~~~~~~~~~~~~~~~~~
Received GPS data:
$GPGSA,A,3,12,21,25,14,193,,,,,,,,1.32,0.98,0.89*3B
~~~~~~~~~~~~~~~~~~~~~~~~~~~~~~~~~~~~~~
Received GPS data:
$GLGSA,A,3,,,,,,,,1.32,0.98,0.89*1B
~~~~~~~~~~~~~~~~~~~~~~~~~~~~~~~~~~~~~~
Received GPS data:
$GPGSV,2,1,07,193,69,100,3,2,07,40,28,252,36,14,17,285,29,32,,,040,30,76,22,199,43*64
~~~~~~~~~~~~~~~~~~~~~~~~~~~~~~~~~~~~~~
---- Current Watch Satellite ----
07
Received GPS data:
$GLGSV,2,2,05,65,,,28*69
~~~~~~~~~~~~~~~~~~~~~~~~~~~~~~~~~~~~~~
---- Current Watch Satellite ----
05
Received GPS data:
$GNRMC,145707.000,A,2233.805514,N,114$GNGGA,145708.000,2233.805514,N,11407.186328,E,1,9,0.98,107.763,M,-1.779,M,,*5C
~~~~~~~~~~~~~~~~~~~~~~~~~~~~~~~~~~~~~~
Received GPS data:
$GPGSA,A,3,12,21,25,14,193,,,,,,,,1.32,0.98,0.89*3B
~~~~~~~~~~~~~~~~~~~~~~~~~~~~~~~~~~~~~~
Received GPS data:
$GLGSA,A,31,06,193,69,100,36,25,37,146,48,21,36,209,47,12,34,08
~~~~~~~~~~~~~~~~~~~~~~~~~~~~~~~~~~~~~~
*************** Input GPS Raw Data ******************
$GNRMC,145707.000,A,2233.805514,N,114$GNGGA,145708.000,2233.805514,N,11407.18632
+---------------------------------------------------+
145707.000,107.763,M,-1.779,M,,*5C
Save_Data.UTCTime = 145707.000,2233.805514N.114$GNGGAC
Save_Data.latitude = 2233.805514N.114$GNGGAC
Save_Data.N_S = N.114$GNGGAC
Save_Data.longitude = 114$GNGGAC
Save_Data.E_W = 14

---------send AT Command:---------
AT+CIPSTART="TCP","api.heclouds.com",80

==========receive AT Command:==========

OK
AT+CIPSTART="TCP","api.heclouds.com",80
OK

CONNECT
---------send AT Command:---------
AT+CIPSEND

==========receive AT Command:==========
 OK
AT+CIPSEND
>
---------send AT Command:---------
POST /devices/31027885/datapoints HTTP/1.1
api-key:rLhsBYEcRfk6BBAwcpNHKIZ199Y=
Host:api.heclouds.com
Content-Length:93

{"datastreams":[{"id":"location","datapoints":[{"value":{"lon":1.233333,"lat":22.563423}}]}]}
==========receive AT Command:==========
 POST /devices/31027885/datapoints HTTP/1.1
api-key:rLhsBYEcRfk6BBAwcpNHKIZ199Y=
Host:api.heclouds.com
Content-Length:93

{"datastreams":[{"id":"location","datapoints":[{"value":{"lon":1.233333,"lat":22.563423}}]}]}
---------send AT Command:---------

==========receive AT Command:==========

SEND OK
HTTP/1.1 200 OK
Date: Sun, 05 Aug 2018 14:57:10 GMT
Content-Type: application/json
Content-Length: 26
Connection: keep-alive
Server: Apache-Coyote/1.1
Pragma: no-cache

{"errno":0,"error":"succ"}
---------send AT Command:---------
AT+CIPCLOSE

==========receive AT Command:==========
AT+CIPCLOSE
CLOSE OK

---------send AT Command:---------
AT+CIPSHUT

==========receive AT Command:==========
AT+CIPSHUT
SHUT OK
GPS DATA is usefull!
Received GPS data:
$GLGSV,2,1,05,75,68,175,46,74,48,036,24,72,47,040,30,76,22,199,2233.805514,N,11407.186328,E,0.00,0.00,050818,,,A*73
~~~~~~~~~~~~~~~~~~~~~~~~~~~~~~~~~~~~~~
---- Current Watch Satellite ----
05
Received GPS data:
$GNVTG,0.00,T,$GNGGA,145712.000,2233.805514,N,11407.186328,E,1,10,0.88,107.763,M,-1.779,M,,*6E
~~~~~~~~~~~~~~~~~~~~~~~~~~~~~~~~~~~~~~
Received GPS data:
$GPGSA,A,3,12,21,25,14,193,,,,,,,,1.25,0.88,0.89*3C
~~~~~~~~~~~~~~~~~~~~~~~~~~~~~~~~~~~~~~
Received GPS data:
$GLGSA,A,30.88,0.89*1F
~~~~~~~~~~~~~~~~~~~~~~~~~~~~~~~~~~~~~~
Received GPS data:
$GPGSV,2,1,06,193,69,100,34,25,37,146,4257,36,14,17,285,25*77
~~~~~~~~~~~~~~~~~~~~~~~~~~~~~~~~~~~~~~
---- Current Watch Satellite ----
06
Received GPS data:
5,30,341,28*64
~~~~~~~~~~~~~~~~~~~~~~~~~~~~~~~~~~~~~~
Received GPS data:
$GLGSV,2,2,05,76,22,199,44*50
~~~~~~~~~~~~~~~~~~~~~~~~~~~~~~~~~~~~~~
---- Current Watch Satellite ----
05
Received GPS data:
$GNRMC,145712.00A*23
~~~~~~~~~~~~~~~~~~~~~~~~~~~~~~~~~~~~~~
*************** Input GPS Raw Data ******************
$GNRMC,145712.00A*232233.805514,N,114$GNGGA,145708.000,2233.805514,N,11407.18632
+---------------------------------------------------+
145712.00A*232233.805514114$GNGGAC
Received GPS data:
$GNGGA,145713.000,2233.805514,N,11407.186328,E,1,10,0.88,107.763,M,-1.779,M,,*6F
~~~~~~~~~~~~~~~~~~~~~~~~~~~~~~~~~~~~~~
Received GPS data:
$GPGSA,A,3,12,21,25,14,193,,,,,,,,1.25,0.88,0.89*3C
~~~~~~~~~~~~~~~~~~~~~~~~~~~~~~~~~~~~~~
Received GPS data:
$GLGSA,A,35,,,,,,,,1.25,0.88,0.89*1F
~~~~~~~~~~~~~~~~~~~~~~~~~~~~~~~~~~~~~~
Received GPS data:
$GPGSV,2,1,07,20,83,022,,2,07,12,34,089,28,40,20,257,37,14,17,247,040,25,65,30,341,27*69
~~~~~~~~~~~~~~~~~~~~~~~~~~~~~~~~~~~~~~
---- Current Watch Satellite ----
07
Received GPS data:
$GLGSV,2,2,05,76,22,199,44*50
~~~~~~~~~~~~~~~~~~~~~~~~~~~~~~~~~~~~~~
---- Current Watch Satellite ----
05
Received GPS data:
$GNRMC,145713.000,A,2233.805514,$GNGGA,145714.000,2233.801408,N,11407.186332,E,1,10,0.88,108.207,M,-1.779,M,,*63
~~~~~~~~~~~~~~~~~~~~~~~~~~~~~~~~~~~~~~
Received GPS data:
$GPGSA,A,3,12,21,25,14,193,,,,,,,,1.25,0.88,0.89*3C
~~~~~~~~~~~~~~~~~~~~~~~~~~~~~~~~~~~~~~
*************** Input GPS Raw Data ******************
$GNRMC,145713.000,A,2233.805514,$GNGGA,145714.000,2233.801408,N,11407.186332,E,1
+---------------------------------------------------+
145713.000.207,M,-1.779,M,,*6305514
Received GPS data:
$GLGSA,A,3SV,2,1,08,20,83,022,,193,69,100,33,25,37,146,47,21,36,14,17,285,25,24,,,32*4D
~~~~~~~~~~~~~~~~~~~~~~~~~~~~~~~~~~~~~~
Received GPS data:
$GLGSV,2,1,05,75,68,175,46,74,48,036,30,7257.17,T,,M,1.37,N,2.5$GNGGA,145715.000,2233.801094,N,11407.186371,E,1,9,0.91,107.734,M,-1.779,M,,*5E
~~~~~~~~~~~~~~~~~~~~~~~~~~~~~~~~~~~~~~
---- Current Watch Satellite ----
05
Received GPS data:
$GPGSA,A,3,12,21,25,14,193,,,,,,,,1.27,0.91,0.89*36
~~~~~~~~~~~~~~~~~~~~~~~~~~~~~~~~~~~~~~
Received GPS data:
$GLGSA,A,3$GPGSV,2,2,08,12,34,089,25,40,20,257,36,14,17,285,24,72,47,040,24,65,30,341,26*60
~~~~~~~~~~~~~~~~~~~~~~~~~~~~~~~~~~~~~~
---- Current Watch Satellite ----
08
Received GPS data:
$GLGSV,2,2,05,76,22,199,44*50
~~~~~~~~~~~~~~~~~~~~~~~~~~~~~~~~~~~~~~
---- Current Watch Satellite ----
05
Received GPS data:
$GNRMC,145715.000,A,2233.801094,$GNGGA,145716.000,2233.800578,N,11407.186420,E,1,10,0.88,107.768,M,-1.779,M,,*61
~~~~~~~~~~~~~~~~~~~~~~~~~~~~~~~~~~~~~~
Received GPS data:
$GPGSA,A,3,12,21,25,14,193,,,,,,,,1.25,0.88,0.89*3C
~~~~~~~~~~~~~~~~~~~~~~~~~~~~~~~~~~~~~~
*************** Input GPS Raw Data ******************
$GNRMC,145715.000,A,2233.801094,$GNGGA,145716.000,2233.800578,N,11407.186420,E,1
+---------------------------------------------------+
145715.000.768,M,-1.779,M,,*61.0004
Received GPS data:
$GLGSA,A,3SV,2,1,08,20,83,022,,193,69,100,32,25,37,146,47,21,366,14,17,285,27,24,,,36*4B
~~~~~~~~~~~~~~~~~~~~~~~~~~~~~~~~~~~~~~
Save_Data.UTCTime = 145715.000.2233.801094$G145716.0004
Save_Data.latitude = 2233.801094$G145716.0004
Save_Data.N_S = $G145716.0004
Save_Data.longitude = 145716.0004
Save_Data.E_W = 22

---------send AT Command:---------
AT+CIPSTART="TCP","api.heclouds.com",80

==========receive AT Command:==========
AT+CIPSTART="TCP","api.heclouds.com",80
OK

CONNECT
---------send AT Command:---------
AT+CIPSEND

==========receive AT Command:==========
 OK
AT+CIPSEND
>
---------send AT Command:---------
POST /devices/31027885/datapoints HTTP/1.1
api-key:rLhsBYEcRfk6BBAwcpNHKIZ199Y=
Host:api.heclouds.com
Content-Length:96

{"datastreams":[{"id":"location","datapoints":[{"value":{"lon":-215.247270,"lat":22.563349}}]}]}
==========receive AT Command:==========
 POST /devices/31027885/datapoints HTTP/1.1
api-key:rLhsBYEcRfk6BBAwcpNHKIZ199Y=
Host:api.heclouds.com
Content-Length:96

{"datastreams":[{"id":"location","datapoints":[{"value":{"lon":-215.247270,"lat":22.563349}}]}]}
---------send AT Command:---------

==========receive AT Command:==========

SEND OK
HTTP/1.1 200 OK
Date: Sun, 05 Aug 2018 14:57:18 GMT
Content-Type: application/json
Content-Length: 26
Connection: keep-alive
Server: Apache-Coyote/1.1
Pragma: no-cache

{"errno":0,"error":"succ"}
---------send AT Command:---------
AT+CIPCLOSE

==========receive AT Command:==========
AT+CIPCLOSE
CLOSE OK

---------send AT Command:---------
AT+CIPSHUT

==========receive AT Command:==========
AT+CIPSHUT
SHUT OK
GPS DATA is usefull!
Received GPS data:
$GLGSV,2,1,05,75,68,175,47,74,48,036,31,7257.17,T,,M,0.00,N,0.0$GNGGA,145717.000,2233.801022,N,11407.186414,E,1,9,0.98,107.517$GNGGA,145719.000,2233.801022,N,11407.186414,E,1,10,0.88,107.517,M,-1.779,M,,*68
~~~~~~~~~~~~~~~~~~~~~~~~~~~~~~~~~~~~~~
---- Current Watch Satellite ----
05
Received GPS data:
$GPGSA,A,3,12,21,25,14,193,,,,,,,,1.25,0.88,0.89*3C
~~~~~~~~~~~~~~~~~~~~~~~~~~~~~~~~~~~~~~
Received GPS data:
$GLGSA,A,3,36*4E
~~~~~~~~~~~~~~~~~~~~~~~~~~~~~~~~~~~~~~
Received GPS data:
$GLGSV,2,1,05,75,68,175,47,74,48,036,32,72,47*50
~~~~~~~~~~~~~~~~~~~~~~~~~~~~~~~~~~~~~~
---- Current Watch Satellite ----
05
Received GPS data:
$GNRMC,145719,,A*78
~~~~~~~~~~~~~~~~~~~~~~~~~~~~~~~~~~~~~~
Received GPS data:
$GNVTG,357.17,T,,M,0.00,N,0.00,K,A*24
~~~~~~~~~~~~~~~~~~~~~~~~~~~~~~~~~~~~~~
*************** Input GPS Raw Data ******************
$GNRMC,145719,,A*78,2233.801094,$GNGGA,145716.000,2233.800578,N,11407.186420,E,1
+---------------------------------------------------+
145719.000.2233.801094$G145716.0004
Received GPS data:
$GNGGA,145720.000,2233.801022,N,11407.186414,E,1,10,0.88,107.517,M,-1.779,M,,*62
~~~~~~~~~~~~~~~~~~~~~~~~~~~~~~~~~~~~~~
Received GPS data:
$GPGSA,A,3,12,21,25,14,193,,,,,,,,1.25,0.88,0.89*3C
~~~~~~~~~~~~~~~~~~~~~~~~~~~~~~~~~~~~~~
Received GPS data:
$GLGSA,A,3,,,,,,,,1.25,0.88,0.89*1F
~~~~~~~~~~~~~~~~~~~~~~~~~~~~~~~~~~~~~~
Received GPS data:
$GPGSV,2,1,08,20,83,022,27,2,2,08,12,34,089,27,40,20,257,36,14,,036,33,72,47,040,26,65,30,341,21*66
~~~~~~~~~~~~~~~~~~~~~~~~~~~~~~~~~~~~~~
---- Current Watch Satellite ----
08
Received GPS data:
$GLGSV,2,2,05,76,22,199,44*50
~~~~~~~~~~~~~~~~~~~~~~~~~~~~~~~~~~~~~~
---- Current Watch Satellite ----
05
Received GPS data:
$GNRMC,145720.000,A,2233.801022,$GNGGA,145721.000,2233.801022,N,11407.186414,E,1,10,0.88,107.517,M,-1.779,M,,*63
~~~~~~~~~~~~~~~~~~~~~~~~~~~~~~~~~~~~~~
Received GPS data:
$GPGSA,A,3,12,21,25,14,193,,,,,,,,1.25,0.88,0.89*3C
~~~~~~~~~~~~~~~~~~~~~~~~~~~~~~~~~~~~~~
*************** Input GPS Raw Data ******************
$GNRMC,145720.000,A,2233.801022,$GNGGA,145721.000,2233.801022,N,11407.186414,E,1
+---------------------------------------------------+
145720.000.517,M,-1.779,M,,*6309404
Received GPS data:
$GLGSA,A,3SV,2,1,08,20,83,022,27,193,69,100,31,25,37,146,47,21,37,14,17,285,23,24,,,36*43
~~~~~~~~~~~~~~~~~~~~~~~~~~~~~~~~~~~~~~
Received GPS data:
$GLGSV,2,1,05,75,68,175,47,74,48,036,34,,357.17,T,,M,0.00,N,0.0$GNGGA,145722.000,2233.801022,N,11407.186414,E,1,10,0.88,107.517,M,-1.779,M,,*60
~~~~~~~~~~~~~~~~~~~~~~~~~~~~~~~~~~~~~~
---- Current Watch Satellite ----
05
Received GPS data:
$GPGSA,A,3,12,21,25,14,193,,,,,,,,1.25,0.88,0.89*3C
~~~~~~~~~~~~~~~~~~~~~~~~~~~~~~~~~~~~~~
Received GPS data:
$GLGSA,A,3B
~~~~~~~~~~~~~~~~~~~~~~~~~~~~~~~~~~~~~~
Received GPS data:
$GPGSV,2,2,08,12,34,089,30,40,20,257,37,14,17,285,35,72,47,040,8,*64
~~~~~~~~~~~~~~~~~~~~~~~~~~~~~~~~~~~~~~
---- Current Watch Satellite ----
08
Received GPS data:
$GNRMC,145722.000,A,2233.801022,N,11407.186414,E,0.00,357.17,05$GNGGA,145723.000,2233.801022,N,11407.186414,E,1,10,0.88,107.517,M,-1.779,M,,*61
~~~~~~~~~~~~~~~~~~~~~~~~~~~~~~~~~~~~~~
Received GPS data:
$GPGSA,A,3,12,21,25,14,193,,,,,,,,1.25,0.88,0.89*3C
~~~~~~~~~~~~~~~~~~~~~~~~~~~~~~~~~~~~~~
Received GPS data:
$GLGSA,A,3100,29,25,37,146,47,21,36,209,47*4B
~~~~~~~~~~~~~~~~~~~~~~~~~~~~~~~~~~~~~~
*************** Input GPS Raw Data ******************
$GNRMC,145722.000,A,2233.801022,N,11407.186414,E,0.00,357.17,05$GNGGA,145723.000
+---------------------------------------------------+
145722.000,N,11407.186414,E,1,10,0.88,107.517,M,-1.779,M,,*61
Received GPS data:
$GPGSV,2,2,08,12$GLGSV,2,1,06,75,68,175,46,74,48,036,36,72,47,00,238,*64
~~~~~~~~~~~~~~~~~~~~~~~~~~~~~~~~~~~~~~
---- Current Watch Satellite ----
08
Save_Data.UTCTime = 145722.000,2233.801022N111407.186414E,07.517,M,-1.779,M,,*61
Save_Data.latitude = 2233.801022N111407.186414E,
Save_Data.N_S = N111407.186414E,
Save_Data.longitude = 11407.186414E,
Save_Data.E_W = E,

---------send 
---------send AT Command:---------
AT

==========receive AT Command:==========
AT
OK

---------send AT Command:---------
AT+CREG?

==========receive AT Command:==========
AT+CREG?
+CREG: 0,
---------send AT Command:---------
AT+CGCLASS="B"

==========receive AT Command:==========
1

OK

---------send AT Command:---------
AT+CGDCONT=1,"IP","3gnet"

==========receive AT Command:==========
AT+CGCLASS="B"AT+CGDCONT=1,"IP","3gnet"
OK
---------send AT Command:---------
AT+CGATT=1

==========receive AT Command:==========


OK

---------send AT Command:---------
AT+CLPORT="TCP","2000"

==========receive AT Command:==========
AT+CGATT=1AT+CLPORT="TCP","2000"
OK
GPRS init ok.
Setup done!
Received GPS data:
80186414,E,1,10,0.88,107.517,M,-1.779,M,,*66
~~~~~~~~~~~~~~~~~~~~~~~~~~~~~~~~~~~~~~
Received GPS data:
$GPGSA,A,3,12,21,$GNGGA,145725.000,2233.801022,N,11407.186414,E,1,10,0.88,107.517,M,-1.779,M,,*67
~~~~~~~~~~~~~~~~~~~~~~~~~~~~~~~~~~~~~~
Received GPS data:
$GPGSA,A,3,12,21,25,14,193,,,,,,,,1.25,0.88,0.89*3C
~~~~~~~~~~~~~~~~~~~~~~~~~~~~~~~~~~~~~~
Received GPS data:
$GLGSA,A,38,0.89*1F
~~~~~~~~~~~~~~~~~~~~~~~~~~~~~~~~~~~~~~
Received GPS data:
$GPGSV,2,1,08,20,83,022,30,193,69,100,28,289,31,40,20,257,36,14,036,36,72,47,040,29,65,30,341,14*68
~~~~~~~~~~~~~~~~~~~~~~~~~~~~~~~~~~~~~~
---- Current Watch Satellite ----
08
Received GPS data:
$GLGSV,2,2,06,76,22,199,44,87,10,238,*64
~~~~~~~~~~~~~~~~~~~~~~~~~~~~~~~~~~~~~~
---- Current Watch Satellite ----
06
Received GPS data:
$GNRMC,145725.000,A,2,A*24
~~~~~~~~~~~~~~~~~~~~~~~~~~~~~~~~~~~~~~
*************** Input GPS Raw Data ******************
$GNRMC,145725.000,A,2,A*24
+---------------------------------------------------+
145725.000
ERROR13

---------send AT Command:---------
AT

=========
---------send AT Command:---------
AT

==========receive AT Command:==========
AT
OK

---------send AT Command:---------
AT+CREG?

==========receive AT Command:==========
AT+CREG?
OK

+CREG: 0,
---------send AT Command:---------
AT+CGCLASS="B"

==========receive AT Command:==========
1

OK

---------send AT Command:---------
AT+CGDCONT=1,"IP","3gnet"

==========receive AT Command:==========
AT+CGCLASS="B"AT+CGDCONT=1,"IP","3gnet"
OK
---------send AT Command:---------
AT+CGATT=1

==========receive AT Command:==========


OK

---------send AT Command:---------
AT+CLPORT="TCP","2000"

==========receive AT Command:==========
AT+CGATT=1AT+CLPORT="TCP","2000"
OK
GPRS init ok.
Setup done!
Received GPS data:
$GNGGA,145726.000,2233.801022,N,11407.186414,E,1,10,0.88,107.51$GNGGA,145728.000,2233.801022,N,11407.186414,E,1,10,0.88,107.517,M,-1.779,M,,*6A
~~~~~~~~~~~~~~~~~~~~~~~~~~~~~~~~~~~~~~
Received GPS data:
$GPGSA,A,3,12,21,25,14,193,,,,,,,,1.25,0.88,0.89*3C
~~~~~~~~~~~~~~~~~~~~~~~~~~~~~~~~~~~~~~
Received GPS data:
$GLGSA,A,3,100,26,25,37,146,47,21,36,209,47*44
~~~~~~~~~~~~~~~~~~~~~~~~~~~~~~~~~~~~~~
Received GPS data:
$GPGSV,2,2,08,1$GLGSV,2,1,06,75,68,175,45,74,48,036,38,72,47,04,238,*64
~~~~~~~~~~~~~~~~~~~~~~~~~~~~~~~~~~~~~~
---- Current Watch Satellite ----
08
Received GPS data:
$GNRMC,145728.000,A,2233.801022,N,11407.186414,E,0.00,357.17,05$GNGGA,145729.000,2233.801022,N,11407.186414,E,1,10,0.88,107.517,M,-1.779,M,,*6B
~~~~~~~~~~~~~~~~~~~~~~~~~~~~~~~~~~~~~~
Received GPS data:
$GPGSA,A,3,12,21,25,14,193,,,,,,,,1.25,0.88,0.89*3C
~~~~~~~~~~~~~~~~~~~~~~~~~~~~~~~~~~~~~~
Received GPS data:
$GLGSA,A,39,100,26,25,37,146,47,21,36,209,47*44
~~~~~~~~~~~~~~~~~~~~~~~~~~~~~~~~~~~~~~
Received GPS data:
$GPGSV,2,2,08,
~~~~~~~~~~~~~~~~~~~~~~~~~~~~~~~~~~~~~~
---- Current Watch Satellite ----
08
Received GPS data:
$GLGSV,2,1,06,75,68,175,46,74,48,036,38,72,47,040,238,*64
~~~~~~~~~~~~~~~~~~~~~~~~~~~~~~~~~~~~~~
---- Current Watch Satellite ----
06
Received GPS data:
$GNR0.00,N,0.00,K,A*24
~~~~~~~~~~~~~~~~~~~~~~~~~~~~~~~~~~~~~~
*************** Input GPS Raw Data ******************
$GNRMC,145728.000,A,2233.801022,N,11407.186414,E,0.00,357.17,05$GNGGA,145729.000
+---------------------------------------------------+
145728.000,N,11407.186414,E,1,10,0.88,107.517,M,-1.779,M,,*6B
Received GPS data:
$GNGGA,145730.000,2233.801022,N,11407.186414,E,1,10,0.88,107.517,M,-1.779,M,,*63
~~~~~~~~~~~~~~~~~~~~~~~~~~~~~~~~~~~~~~
Received GPS data:
$GPGSA,A,3,12,21,25,14,193,,,,,,,,1.25,0.88,0.89*3C
~~~~~~~~~~~~~~~~~~~~~~~~~~~~~~~~~~~~~~
Received GPS data:
$GLGSA,A,35,,,,,,,,1.25,0.88,0.89*1F
~~~~~~~~~~~~~~~~~~~~~~~~~~~~~~~~~~~~~~
Received GPS data:
$GPGSV,2,1,08,20,83,022,3,2,2,08,12,34,089,33,40,20,257,36,14,1036,38,72,47,040,30,65,30,341,16*6C
~~~~~~~~~~~~~~~~~~~~~~~~~~~~~~~~~~~~~~
---- Current Watch Satellite ----
08
Received GPS data:
$GLGSV,2,2,06,76,22,199,44,87,10,238,*64
~~~~~~~~~~~~~~~~~~~~~~~~~~~~~~~~~~~~~~
---- Current Watch Satellite ----
06
Received GPS data:
$GNRMC,145730.000,A,2,A*24
~~~~~~~~~~~~~~~~~~~~~~~~~~~~~~~~~~~~~~
*************** Input GPS Raw Data ******************
$GNRMC,145730.000,A,2,A*2401022,N,11407.186414,E,0.00,357.17,05$GNGGA,145729.000
+---------------------------------------------------+
145730.000,2233.801022N111407.186414E,07.517,M,-1.779,M,,*6B
Received GPS data:
$GNGGA,145731.000,2233.801022,N,11407.186414,E,1,10,0.88,107.517,M,-1.779,M,,*62
~~~~~~~~~~~~~~~~~~~~~~~~~~~~~~~~~~~~~~
Received GPS data:
$GPGSA,A,3,12,21,25,14,193,,,,,,,,1.25,0.88,0.89*3C
~~~~~~~~~~~~~~~~~~~~~~~~~~~~~~~~~~~~~~
Received GPS data:
$GLGSA,A,35,,,,,,,,1.25,0.88,0.89*1F
~~~~~~~~~~~~~~~~~~~~~~~~~~~~~~~~~~~~~~
Received GPS data:
$GPGSV,2,1,08,20,83,022,32,2,08,12,34,089,34,40,20,257,36,14,17036,38,72,47,040,30,65,30,341,23*6A
~~~~~~~~~~~~~~~~~~~~~~~~~~~~~~~~~~~~~~
---- Current Watch Satellite ----
08
Received GPS data:
$GLGSV,2,2,06,76,22,199,44,87,10,238,*64
~~~~~~~~~~~~~~~~~~~~~~~~~~~~~~~~~~~~~~
---- Current Watch Satellite ----
06
Received GPS data:
$GNRMC,145731.000,A,2,A*24
~~~~~~~~~~~~~~~~~~~~~~~~~~~~~~~~~~~~~~
*************** Input GPS Raw Data ******************
$GNRMC,145731.000,A,2,A*2401022,N,11407.186414,E,0.00,357.17,05$GNGGA,145729.000
+---------------------------------------------------+
145731.000,2233.801022A*N401022864141107.186414-1.779,M,,*6B
Received GPS data:
$GNGGA,145732.000,2233.801022,N,11407.186414,E,1,10,0.88,107.517,M,-1.779,M,,*61
~~~~~~~~~~~~~~~~~~~~~~~~~~~~~~~~~~~~~~
Received GPS data:
$GPGSA,A,3,12,21,25,14,193,,,,,,,,1.25,0.88,0.89*3C
~~~~~~~~~~~~~~~~~~~~~~~~~~~~~~~~~~~~~~
Received GPS data:
$GLGSA,A,3,,,,,,,,1.25,0.88,0.89*1F
~~~~~~~~~~~~~~~~~~~~~~~~~~~~~~~~~~~~~~
Received GPS data:
$GPGSV,2,1,08,20,83,022,31,2,2,08,12,34,089,33,40,20,257,36,14,,036,38,72,47,040,30,65,30,341,23*69
~~~~~~~~~~~~~~~~~~~~~~~~~~~~~~~~~~~~~~
---- Current Watch Satellite ----
08
Received GPS data:
$GLGSV,2,2,06,76,22,199,44,87,10,238,*64
~~~~~~~~~~~~~~~~~~~~~~~~~~~~~~~~~~~~~~
---- Current Watch Satellite ----
06
Received GPS data:
$GNRMC,145732.000,A,2,A*24
~~~~~~~~~~~~~~~~~~~~~~~~~~~~~~~~~~~~~~
*************** Input GPS Raw Data ******************
$GNRMC,145732.000,A,2,A*2401022,N,11407.186414,E,0.00,357.17,05$GNGGA,145729.000
+---------------------------------------------------+
145732.000,2233.801022A*N401022864141107.186414-1.779,M,,*6B
Save_Data.UTCTime = 145732.000,2233.801022A*N401022864141107.186414-1.779,M,,*6B
Save_Data.latitude = 2233.801022A*N4010228641411
Save_Data.N_S = A*N4010228641411
Save_Data.longitude = N4010228641411
Save_Data.E_W = 11

---------send 
---------send AT Command:---------
AT

==========receive AT Command:==========
AT
OK

---------send AT Command:---------
AT+CREG?

==========receive AT Command:==========
AT+CREG?
+CREG: 0,
---------send AT Command:---------
AT+CGCLASS="B"

==========receive AT Command:==========
1

OK

---------send AT Command:---------
AT+CGDCONT=1,"IP","3gnet"

==========receive AT Command:==========
AT+CGCLASS="B"AT+CGDCONT=1,"IP","3gnet"
OK
---------send AT Command:---------
AT+CGATT=1

==========receive AT Command:==========


OK

---------send AT Command:---------
AT+CLPORT="TCP","2000"

==========receive AT Command:==========
AT+CGATT=1AT+CLPORT="TCP","2000"
OK
GPRS init ok.
Setup done!
Received GPS data:
$GNGGA,145733.000,2233.801022,N,11407.186414,E,1,10,0.88,107.517,M,-1.779,M,,*60
~~~~~~~~~~~~~~~~~~~~~~~~~~~~~~~~~~~~~~
Received GPS data:
$GPGSA,A,3,12,21,25,14,193,,,,,,,,1.25,0.88,0.89*3C
~~~~~~~~~~~~~~~~~~~~~~~~~~~~~~~~~~~~~~
Received GPS data:
$GLGSA,A,3,,,,,,,,1.25,0.88,0.89*1F
~~~~~~~~~~~~~~~~~~~~~~~~~~~~~~~~~~~~~~
Received GPS data:
$GPGSV,2,1,08,20,83,022,302,2,08,12,34,089,31,40,20,257,36,14,18,036,37,72,47,040,30,65,30,341,23*66
~~~~~~~~~~~~~~~~~~~~~~~~~~~~~~~~~~~~~~
---- Current Watch Satellite ----
08
Received GPS data:
$GLGSV,2,2,06,76,22,199,44,87,10,238,*64
~~~~~~~~~~~~~~~~~~~~~~~~~~~~~~~~~~~~~~
---- Current Watch Satellite ----
06
Received GPS data:
$GNRMC,145733.000,A,2,A*24
~~~~~~~~~~~~~~~~~~~~~~~~~~~~~~~~~~~~~~
*************** Input GPS Raw Data ******************
$GNRMC,145733.000,A,2,A*24
+---------------------------------------------------+
145733.000
ERROR13

---------send AT Command:---------
AT

=========
---------send AT Command:---------
AT

==========receive AT Command:==========
AT
OK

---------send AT Command:---------
AT+CREG?

==========receive AT Command:==========
AT+CREG?
OK

+CREG: 0,
---------send AT Command:---------
AT+CGCLASS="B"

==========receive AT Command:==========
1

OK

---------send AT Command:---------
AT+CGDCONT=1,"IP","3gnet"

==========receive AT Command:==========
AT+CGCLASS="B"AT+CGDCONT=1,"IP","3gnet"
OK
---------send AT Command:---------
AT+CGATT=1

==========receive AT Command:==========


OK

---------send AT Command:---------
AT+CLPORT="TCP","2000"

==========receive AT Command:==========
AT+CGATT=1AT+CLPORT="TCP","2000"
OK
GPRS init ok.
Setup done!
Received GPS data:
$GNGGA,145734.000,2233.801022,N,11407.186414,E,1,9,0.98,107.517$GNGGA,145737.000,2233.801022,N,11407.186414,E,1,10,0.88,107.517,M,-1.779,M,,*64
~~~~~~~~~~~~~~~~~~~~~~~~~~~~~~~~~~~~~~
Received GPS data:
$GPGSA,A,3,12,21,25,14,193,,,,,,,,1.25,0.88,0.89*3C
~~~~~~~~~~~~~~~~~~~~~~~~~~~~~~~~~~~~~~
Received GPS data:
$GLGSA,A,3,100,24,25,37,146,47,21,36,209,49*41
~~~~~~~~~~~~~~~~~~~~~~~~~~~~~~~~~~~~~~
Received GPS data:
$GPGSV,2,2,08,1$GLGSV,2,1,06,75,68,175,45,74,48,036,36,72,47,04,238,*64
~~~~~~~~~~~~~~~~~~~~~~~~~~~~~~~~~~~~~~
---- Current Watch Satellite ----
08
Received GPS data:
$GNRMC,145737.000,A,2233.801022,N,11407.186414,E,0.00,357.17,05$GNGGA,145738.000,2233.801022,N,11407.186414,E,1,10,0.88,107.517,M,-1.779,M,,*6B
~~~~~~~~~~~~~~~~~~~~~~~~~~~~~~~~~~~~~~
Received GPS data:
$GPGSA,A,3,12,21,25,14,193,,,,,,,,1.25,0.88,0.89*3C
~~~~~~~~~~~~~~~~~~~~~~~~~~~~~~~~~~~~~~
Received GPS data:
$GLGSA,A,3,100,24,25,37,146,47,21,36,209,49*4E
~~~~~~~~~~~~~~~~~~~~~~~~~~~~~~~~~~~~~~
Received GPS data:
$GPGSV,2,2,08,1
~~~~~~~~~~~~~~~~~~~~~~~~~~~~~~~~~~~~~~
---- Current Watch Satellite ----
08
Received GPS data:
$GLGSV,2,1,06,75,68,175,45,74,48,036,36,72,47,00,238,*64
~~~~~~~~~~~~~~~~~~~~~~~~~~~~~~~~~~~~~~
---- Current Watch Satellite ----
06
Received GPS data:
$GNRM.00,N,0.00,K,A*24
~~~~~~~~~~~~~~~~~~~~~~~~~~~~~~~~~~~~~~
*************** Input GPS Raw Data ******************
$GNRMC,145737.000,A,2233.801022,N,11407.186414,E,0.00,357.17,05$GNGGA,145738.000
+---------------------------------------------------+
145737.000,N,11407.186414,E,1,10,0.88,107.517,M,-1.779,M,,*6B
Received GPS data:
$GNGGA,145739.000,2233.801022,N,11407.186414,E,1,10,0.88,107.517,M,-1.779,M,,*6A
~~~~~~~~~~~~~~~~~~~~~~~~~~~~~~~~~~~~~~
Received GPS data:
$GPGSA,A,3,12,21,25,14,193,,,,,,,,1.25,0.88,0.89*3C
~~~~~~~~~~~~~~~~~~~~~~~~~~~~~~~~~~~~~~
Received GPS data:
$GLGSA,A,3,,,,,,,,1.25,0.88,0.89*1F
~~~~~~~~~~~~~~~~~~~~~~~~~~~~~~~~~~~~~~
Received GPS data:
$GPGSV,2,1,08,20,83,022,27,2,2,08,12,34,089,29,40,20,257,37,14,,041,31,74,48,036,36,65,30,341,23*68
~~~~~~~~~~~~~~~~~~~~~~~~~~~~~~~~~~~~~~
---- Current Watch Satellite ----
08
Received GPS data:
$GLGSV,2,2,06,76,22,199,44,87,10,238,*64
~~~~~~~~~~~~~~~~~~~~~~~~~~~~~~~~~~~~~~
---- Current Watch Satellite ----
06
Received GPS data:
$GNRMC,145739.000,A,2,A*24
~~~~~~~~~~~~~~~~~~~~~~~~~~~~~~~~~~~~~~
*************** Input GPS Raw Data ******************
$GNRMC,145739.000,A,2,A*2401022,N,11407.186414,E,0.00,357.17,05$GNGGA,145738.000
+---------------------------------------------------+
145739.000,2233.801022N111407.186414E,07.517,M,-1.779,M,,*6B
Received GPS data:
$GNGGA,145740.000,2233.801022,N,11407.186414,E,1,10,0.88,107.517,M,-1.779,M,,*64
~~~~~~~~~~~~~~~~~~~~~~~~~~~~~~~~~~~~~~
Received GPS data:
$GPGSA,A,3,12,21,25,14,193,,,,,,,,1.25,0.88,0.89*3C
~~~~~~~~~~~~~~~~~~~~~~~~~~~~~~~~~~~~~~
Received GPS data:
$GLGSA,A,3,,,,,,,,1.25,0.88,0.89*1F
~~~~~~~~~~~~~~~~~~~~~~~~~~~~~~~~~~~~~~
Received GPS data:
$GPGSV,2,1,08,20,83,022,27,2,2,08,12,34,089,29,40,20,257,36,14,,041,31,74,48,036,36,65,30,341,24*6F
~~~~~~~~~~~~~~~~~~~~~~~~~~~~~~~~~~~~~~
---- Current Watch Satellite ----
08
Received GPS data:
$GLGSV,2,2,06,76,22,199,44,87,10,238,*64
~~~~~~~~~~~~~~~~~~~~~~~~~~~~~~~~~~~~~~
---- Current Watch Satellite ----
06
Received GPS data:
$GNRMC,145740.000,A,2K,A*24
~~~~~~~~~~~~~~~~~~~~~~~~~~~~~~~~~~~~~~
*************** Input GPS Raw Data ******************
$GNRMC,145740.000,A,2K,A*241022,N,11407.186414,E,0.00,357.17,05$GNGGA,145738.000
+---------------------------------------------------+
145740.000,2233.801022A*N401022864141107.186414-1.779,M,,*6B
Received GPS data:
$GNGGA,145741.000,2233.801022,N,11407.186414,E,1,10,0.88,107.517,M,-1.779,M,,*65
~~~~~~~~~~~~~~~~~~~~~~~~~~~~~~~~~~~~~~
Received GPS data:
$GPGSA,A,3,12,21,25,14,193,,,,,,,,1.25,0.88,0.89*3C
~~~~~~~~~~~~~~~~~~~~~~~~~~~~~~~~~~~~~~
Received GPS data:
$GLGSA,A,3,,,,,,,,1.25,0.88,0.89*1F
~~~~~~~~~~~~~~~~~~~~~~~~~~~~~~~~~~~~~~
Received GPS data:
$GPGSV,2,1,08,20,83,022,27,2,2,08,12,34,089,29,40,20,257,36,14,,041,31,74,47,036,35,65,30,341,24*63
~~~~~~~~~~~~~~~~~~~~~~~~~~~~~~~~~~~~~~
---- Current Watch Satellite ----
08
Received GPS data:
$GLGSV,2,2,06,76,22,199,44,87,10,238,*64
~~~~~~~~~~~~~~~~~~~~~~~~~~~~~~~~~~~~~~
---- Current Watch Satellite ----
06
Received GPS data:
$GNRMC,145741.000,A,2,A*24
~~~~~~~~~~~~~~~~~~~~~~~~~~~~~~~~~~~~~~
*************** Input GPS Raw Data ******************
$GNRMC,145741.000,A,2,A*2441022,N,11407.186414,E,0.00,357.17,05$GNGGA,145738.000
+---------------------------------------------------+
145741.000,2K33.801022A*N410222864141107.186414-1.779,M,,*6B
Save_Data.UTCTime = 145741.000,2K33.801022A*N441022864141107.186414-1.779,M,,*6B
Save_Data.latitude = 2K33.801022A*N4410228641411
Save_Data.N_S = A*N4410228641411
Save_Data.longitude = N4410228641411
Save_Data.E_W = 11

---------send 
---------send AT Command:---------
AT

==========receive AT Command:==========
AT
OK

---------send AT Command:---------
AT+CREG?

==========receive AT Command:==========
AT+CREG?
+CREG: 0,
---------send AT Command:---------
AT+CGCLASS="B"

==========receive AT Command:==========
1

OK

---------send AT Command:---------
AT+CGDCONT=1,"IP","3gnet"

==========receive AT Command:==========
AT+CGCLASS="B"AT+CGDCONT=1,"IP","3gnet"
OK
---------send AT Command:---------
AT+CGATT=1

==========receive AT Command:==========


OK

---------send AT Command:---------
AT+CLPORT="TCP","2000"

==========receive AT Command:==========
AT+CGATT=1AT+CLPORT="TCP","2000"
OK
GPRS init ok.
Setup done!
Received GPS data:
$GNGGA,145742.000,2233.801022,N,11407.186414,E,1,10,0.88,107.51$GNGGA,145743.000,2233.801022,N,11407.186414,E,1,10,0.88,107.517,M,-1.779,M,,*67
~~~~~~~~~~~~~~~~~~~~~~~~~~~~~~~~~~~~~~
Received GPS data:
$GPGSA,A,3,12,21,25,14,193,,,,,,,,1.25,0.88,0.89*3C
~~~~~~~~~~~~~~~~~~~~~~~~~~~~~~~~~~~~~~
Received GPS data:
$GLGSA,A,3,100,25,25,37,146,47,21,36,209,49*4F
~~~~~~~~~~~~~~~~~~~~~~~~~~~~~~~~~~~~~~
Received GPS data:
$GPGSV,2,2,08,1$GLGSV,2,1,06,75,69,175,45,72,48,041,31,74,47,03,238,*65
~~~~~~~~~~~~~~~~~~~~~~~~~~~~~~~~~~~~~~
---- Current Watch Satellite ----
08
Received GPS data:
$GNRMC,145743.000,A,2233.801022,N,11407.186414,E,0.00,357.17,05$GNGGA,145744.000,2233.801022,N,11407.186414,E,1,10,0.88,107.517,M,-1.779,M,,*60
~~~~~~~~~~~~~~~~~~~~~~~~~~~~~~~~~~~~~~
Received GPS data:
$GPGSA,A,3,12,21,25,14,193,,,,,,,,1.25,0.88,0.89*3C
~~~~~~~~~~~~~~~~~~~~~~~~~~~~~~~~~~~~~~
Received GPS data:
$GLGSA,A,3100,26,25,37,146,47,21,36,209,49*4C
~~~~~~~~~~~~~~~~~~~~~~~~~~~~~~~~~~~~~~
Received GPS data:
$GPGSV,2,2,08,12
~~~~~~~~~~~~~~~~~~~~~~~~~~~~~~~~~~~~~~
---- Current Watch Satellite ----
08
Received GPS data:
$GLGSV,2,1,06,75,69,175,45,72,48,041,31,74,47,10,238,*62
~~~~~~~~~~~~~~~~~~~~~~~~~~~~~~~~~~~~~~
---- Current Watch Satellite ----
06
Received GPS data:
$GNRM0.00,N,0.00,K,A*24
~~~~~~~~~~~~~~~~~~~~~~~~~~~~~~~~~~~~~~
*************** Input GPS Raw Data ******************
$GNRMC,145743.000,A,2233.801022,N,11407.186414,E,0.00,357.17,05$GNGGA,145744.000
+---------------------------------------------------+
145743.000,N,11407.186414,E,1,10,0.88,107.517,M,-1.779,M,,*60
Received GPS data:
$GNGGA,145745.000,2233.801022,N,11407.186414,E,1,10,0.88,107.517,M,-1.779,M,,*61
~~~~~~~~~~~~~~~~~~~~~~~~~~~~~~~~~~~~~~
Received GPS data:
$GPGSA,A,3,12,21,25,14,193,,,,,,,,1.25,0.88,0.89*3C
~~~~~~~~~~~~~~~~~~~~~~~~~~~~~~~~~~~~~~
Received GPS data:
$GLGSA,A,3,,,,,,,,1.25,0.88,0.89*1F
~~~~~~~~~~~~~~~~~~~~~~~~~~~~~~~~~~~~~~
Received GPS data:
$GPGSV,2,1,08,20,83,022,27,2,2,08,12,34,089,30,40,20,257,36,14,,041,31,74,47,036,24,65,30,341,20*66
~~~~~~~~~~~~~~~~~~~~~~~~~~~~~~~~~~~~~~
---- Current Watch Satellite ----
08
Received GPS data:
$GLGSV,2,2,06,76,23,199,43,87,10,238,*62
~~~~~~~~~~~~~~~~~~~~~~~~~~~~~~~~~~~~~~
---- Current Watch Satellite ----
06
Received GPS data:
$GNRMC,145745.000,A,2K,A*24
~~~~~~~~~~~~~~~~~~~~~~~~~~~~~~~~~~~~~~
*************** Input GPS Raw Data ******************
$GNRMC,145745.000,A,2K,A*241022,N,11407.186414,E,0.00,357.17,05$GNGGA,145744.000
+---------------------------------------------------+
145745.000,2233.801022N111407.186414E,07.517,M,-1.779,M,,*60
Received GPS data:
$GNGGA,145746.000,2233.801022,N,11407.186414,E,1,9,0.88,107.517,M,-1.779,M,,*5A
~~~~~~~~~~~~~~~~~~~~~~~~~~~~~~~~~~~~~~
Received GPS data:
$GPGSA,A,3,12,21,25,14,,,,,,,,,1.27,0.88,0.91*0C
~~~~~~~~~~~~~~~~~~~~~~~~~~~~~~~~~~~~~~
Received GPS data:
$GLGSA,A,3,72,,,,,,1.27,0.88,0.91*14
~~~~~~~~~~~~~~~~~~~~~~~~~~~~~~~~~~~~~~
Received GPS data:
$GPGSV,2,1,08,20,83,022,2,2,2,08,12,34,089,30,40,20,257,36,14,1,041,31,74,47,036,24,65,30,341,24*62
~~~~~~~~~~~~~~~~~~~~~~~~~~~~~~~~~~~~~~
---- Current Watch Satellite ----
08
Received GPS data:
$GLGSV,2,2,06,76,23,199,43,87,10,238,*62
~~~~~~~~~~~~~~~~~~~~~~~~~~~~~~~~~~~~~~
---- Current Watch Satellite ----
06
Received GPS data:
$GNRMC,145746.000,A,2,A*24
~~~~~~~~~~~~~~~~~~~~~~~~~~~~~~~~~~~~~~
*************** Input GPS Raw Data ******************
$GNRMC,145746.000,A,2,A*2441022,N,11407.186414,E,0.00,357.17,05$GNGGA,145744.000
+---------------------------------------------------+
145746.000,2K33.801022A*N410221864141107.186414-1.779,M,,*60
Received GPS data:
$GNGGA,145747.000,2233.801022,N,11407.186414,E,1,10,0.88,107.517,M,-1.779,M,,*63
~~~~~~~~~~~~~~~~~~~~~~~~~~~~~~~~~~~~~~
Received GPS data:
$GPGSA,A,3,12,21,25,14,193,,,,,,,,1.25,0.88,0.89*3C
~~~~~~~~~~~~~~~~~~~~~~~~~~~~~~~~~~~~~~
Received GPS data:
$GLGSA,A,3,,,,,,,,1.25,0.88,0.89*1F
~~~~~~~~~~~~~~~~~~~~~~~~~~~~~~~~~~~~~~
Received GPS data:
$GPGSV,2,1,08,20,83,022,282,2,08,12,34,089,30,40,20,257,36,14,1,041,31,74,47,036,25,65,30,341,24*63
~~~~~~~~~~~~~~~~~~~~~~~~~~~~~~~~~~~~~~
---- Current Watch Satellite ----
08
Received GPS data:
$GLGSV,2,2,06,76,23,199,42,87,10,238,*63
~~~~~~~~~~~~~~~~~~~~~~~~~~~~~~~~~~~~~~
---- Current Watch Satellite ----
06
Received GPS data:
$GNRMC,145747.000,A,2K,A*24
~~~~~~~~~~~~~~~~~~~~~~~~~~~~~~~~~~~~~~
*************** Input GPS Raw Data ******************
$GNRMC,145747.000,A,2K,A*241022,N,11407.186414,E,0.00,357.17,05$GNGGA,145744.000
+---------------------------------------------------+
145747.000,2K33.801022A*N441022864141107.186414-1.779,M,,*60
Save_Data.UTCTime = 145747.000,2K33.801022A*N410222864141107.186414-1.779,M,,*60
Save_Data.latitude = 2K33.801022A*N4102228641411
Save_Data.N_S = A*N4102228641411
Save_Data.longitude = N4102228641411
Save_Data.E_W = 11

---------send 
---------send AT Command:---------
AT

==========receive AT Command:==========
AT
OK

---------send AT Command:---------
AT+CREG?

==========receive AT Command:==========
AT+CREG?
+CREG: 0,
---------send AT Command:---------
AT+CGCLASS="B"

==========receive AT Command:==========
1

OK

---------send AT Command:---------
AT+CGDCONT=1,"IP","3gnet"

==========receive AT Command:==========
AT+CGCLASS="B"AT+CGDCONT=1,"IP","3gnet"
OK
---------send AT Command:---------
AT+CGATT=1

==========receive AT Command:==========


OK

---------send AT Command:---------
AT+CLPORT="TCP","2000"

==========receive AT Command:==========
AT+CGATT=1AT+CLPORT="TCP","2000"
OK
GPRS init ok.
Setup done!
Received GPS data:
$GNGGA,145748.000,2233.801022,N,11407.186414,E,1,10,0.88,107.517,M,-1.779,M,,*6C
~~~~~~~~~~~~~~~~~~~~~~~~~~~~~~~~~~~~~~
Received GPS data:
$GPGSA,A,3,12,21,25,14,193,,,,,,,,1.25,0.88,0.89*3C
~~~~~~~~~~~~~~~~~~~~~~~~~~~~~~~~~~~~~~
Received GPS data:
$GLGSA,A,35,,,,,,,,1.25,0.88,0.89*1F
~~~~~~~~~~~~~~~~~~~~~~~~~~~~~~~~~~~~~~
Received GPS data:
$GPGSV,2,1,08,20,83,022,22,2,08,12,34,089,31,40,20,257,36,14,17,041,32,74,47,036,27,65,30,341,24*62
~~~~~~~~~~~~~~~~~~~~~~~~~~~~~~~~~~~~~~
---- Current Watch Satellite ----
08
Received GPS data:
$GLGSV,2,2,06,76,23,199,42,87,10,238,*63
~~~~~~~~~~~~~~~~~~~~~~~~~~~~~~~~~~~~~~
---- Current Watch Satellite ----
06
Received GPS data:
$GNRMC,145748.000,A,2,A*24
~~~~~~~~~~~~~~~~~~~~~~~~~~~~~~~~~~~~~~
*************** Input GPS Raw Data ******************
$GNRMC,145748.000,A,2,A*24
+---------------------------------------------------+
145748.000
ERROR13

---------send AT Command:---------
AT

========
---------send AT Command:---------
AT

==========receive AT Command:==========
AT
OK

---------send AT Command:---------
AT+CREG?
